[
  {
    "id": "0900",
    "name": "Keelung",
    "lat": 25.13191,
    "lon": 121.73837
  },
  {
    "id": "0910",
    "name": "Sankeng",
    "lat": 25.12305,
    "lon": 121.74202
  },
  {
    "id": "0920",
    "name": "Badu",
    "lat": 25.10838,
    "lon": 121.72904
  },
  {
    "id": "0930",
    "name": "Qidu",
    "lat": 25.09294,
    "lon": 121.71415
  },
  {
    "id": "0940",
    "name": "Baifu",
    "lat": 25.07795,
    "lon": 121.69379
  },
  {
    "id": "0950",
    "name": "Wudu",
    "lat": 25.07799,
    "lon": 121.66758
  },
  {
    "id": "0960",
    "name": "Xizhi",
    "lat": 25.0679,
    "lon": 121.66113
  },
  {
    "id": "0970",
    "name": "Xike",
    "lat": 25.06406,
    "lon": 121.65233
  },
  {
    "id": "0980",
    "name": "Nangang",
    "lat": 25.05348,
    "lon": 121.60706
  },
  {
    "id": "0990",
    "name": "Songshan",
    "lat": 25.04927,
    "lon": 121.57906
  },
  {
    "id": "1000",
    "name": "Taipei",
    "lat": 25.04775,
    "lon": 121.51711
  },
  {
    "id": "1001",
    "name": "Taipei Surround Island",
    "lat": 25.04774,
    "lon": 121.51711
  },
  {
    "id": "1010",
    "name": "Wanhua",
    "lat": 25.03339,
    "lon": 121.49996
  },
  {
    "id": "1020",
    "name": "Banqiao",
    "lat": 25.01434,
    "lon": 121.46377
  },
  {
    "id": "1030",
    "name": "Fuzhou",
    "lat": 25.00419,
    "lon": 121.44477
  },
  {
    "id": "1040",
    "name": "Shulin",
    "lat": 24.99123,
    "lon": 121.42442
  },
  {
    "id": "1050",
    "name": "South Shulin",
    "lat": 24.98044,
    "lon": 121.40884
  },
  {
    "id": "1060",
    "name": "Shanjia",
    "lat": 24.97273,
    "lon": 121.39254
  },
  {
    "id": "1070",
    "name": "Yingge",
    "lat": 24.95455,
    "lon": 121.35517
  },
  {
    "id": "1075",
    "name": "Fengming",
    "lat": 24.97268,
    "lon": 121.33658
  },
  {
    "id": "1080",
    "name": "Taoyuan",
    "lat": 24.98888,
    "lon": 121.31449
  },
  {
    "id": "1090",
    "name": "Neili",
    "lat": 24.97281,
    "lon": 121.25826
  },
  {
    "id": "1100",
    "name": "Zhongli_Taoyuan",
    "lat": 24.95374,
    "lon": 121.22589
  },
  {
    "id": "1110",
    "name": "Puxin",
    "lat": 24.91939,
    "lon": 121.18363
  },
  {
    "id": "1120",
    "name": "Yangmei",
    "lat": 24.91427,
    "lon": 121.14637
  },
  {
    "id": "1130",
    "name": "Fugang",
    "lat": 24.93436,
    "lon": 121.08309
  },
  {
    "id": "1140",
    "name": "Xinfu",
    "lat": 24.93109,
    "lon": 121.06751
  },
  {
    "id": "1150",
    "name": "Beihu",
    "lat": 24.92218,
    "lon": 121.05575
  },
  {
    "id": "1160",
    "name": "Hukou",
    "lat": 24.90303,
    "lon": 121.04412
  },
  {
    "id": "1170",
    "name": "Xinfeng",
    "lat": 24.86939,
    "lon": 120.99626
  },
  {
    "id": "1180",
    "name": "Zhubei",
    "lat": 24.83919,
    "lon": 121.00946
  },
  {
    "id": "1190",
    "name": "North Hsinchu",
    "lat": 24.80875,
    "lon": 120.98381
  },
  {
    "id": "1191",
    "name": "Qianjia",
    "lat": 24.80657,
    "lon": 121.0034
  },
  {
    "id": "1192",
    "name": "Xinzhuang",
    "lat": 24.78811,
    "lon": 121.02196
  },
  {
    "id": "1193",
    "name": "Zhuzhong",
    "lat": 24.78145,
    "lon": 121.03141
  },
  {
    "id": "1194",
    "name": "Liujia",
    "lat": 24.80766,
    "lon": 121.03941
  },
  {
    "id": "1201",
    "name": "Shangyuan",
    "lat": 24.77776,
    "lon": 121.05582
  },
  {
    "id": "1202",
    "name": "Ronghua",
    "lat": 24.74839,
    "lon": 121.08319
  },
  {
    "id": "1203",
    "name": "Zhudong",
    "lat": 24.73823,
    "lon": 121.09472
  },
  {
    "id": "1204",
    "name": "Hengshan",
    "lat": 24.72041,
    "lon": 121.11772
  },
  {
    "id": "1205",
    "name": "Jiuzantou",
    "lat": 24.72062,
    "lon": 121.13622
  },
  {
    "id": "1206",
    "name": "Hexing",
    "lat": 24.71667,
    "lon": 121.15437
  },
  {
    "id": "1207",
    "name": "Fugui",
    "lat": 24.71551,
    "lon": 121.16743
  },
  {
    "id": "1208",
    "name": "Neiwan",
    "lat": 24.70535,
    "lon": 121.18255
  },
  {
    "id": "1210",
    "name": "Hsinchu",
    "lat": 24.80157,
    "lon": 120.97157
  },
  {
    "id": "1220",
    "name": "Sanxingqiao",
    "lat": 24.78731,
    "lon": 120.92844
  },
  {
    "id": "1230",
    "name": "Xiangshan",
    "lat": 24.76311,
    "lon": 120.91388
  },
  {
    "id": "1240",
    "name": "Qiding",
    "lat": 24.72291,
    "lon": 120.87183
  },
  {
    "id": "1250",
    "name": "Zhunan",
    "lat": 24.68654,
    "lon": 120.88041
  },
  {
    "id": "1998",
    "name": "Shulin Rail Yard",
    "lat": 24.97992,
    "lon": 121.40554
  },
  {
    "id": "2110",
    "name": "Tanwen",
    "lat": 24.65641,
    "lon": 120.85825
  },
  {
    "id": "2120",
    "name": "Dashan",
    "lat": 24.64565,
    "lon": 120.80376
  },
  {
    "id": "2130",
    "name": "Houlong",
    "lat": 24.61621,
    "lon": 120.78731
  },
  {
    "id": "2140",
    "name": "Longgang",
    "lat": 24.61169,
    "lon": 120.75812
  },
  {
    "id": "2150",
    "name": "Baishatun",
    "lat": 24.56481,
    "lon": 120.70824
  },
  {
    "id": "2160",
    "name": "Xinpu",
    "lat": 24.54018,
    "lon": 120.69518
  },
  {
    "id": "2170",
    "name": "Tongxiao",
    "lat": 24.49141,
    "lon": 120.67843
  },
  {
    "id": "2180",
    "name": "Yuanli",
    "lat": 24.44344,
    "lon": 120.65146
  },
  {
    "id": "2190",
    "name": "Rinan",
    "lat": 24.37815,
    "lon": 120.65412
  },
  {
    "id": "2200",
    "name": "Dajia",
    "lat": 24.34448,
    "lon": 120.62702
  },
  {
    "id": "2210",
    "name": "Taichung Port",
    "lat": 24.30441,
    "lon": 120.60231
  },
  {
    "id": "2220",
    "name": "Qingshui",
    "lat": 24.26364,
    "lon": 120.56918
  },
  {
    "id": "2230",
    "name": "Shalu",
    "lat": 24.23702,
    "lon": 120.55752
  },
  {
    "id": "2240",
    "name": "Longjing",
    "lat": 24.19748,
    "lon": 120.54335
  },
  {
    "id": "2250",
    "name": "Dadu",
    "lat": 24.15417,
    "lon": 120.54249
  },
  {
    "id": "2260",
    "name": "Zhuifen",
    "lat": 24.12051,
    "lon": 120.57018
  },
  {
    "id": "3140",
    "name": "Zaoqiao",
    "lat": 24.64186,
    "lon": 120.86721
  },
  {
    "id": "3150",
    "name": "Fengfu",
    "lat": 24.60429,
    "lon": 120.82637
  },
  {
    "id": "3160",
    "name": "Miaoli",
    "lat": 24.57001,
    "lon": 120.82233
  },
  {
    "id": "3170",
    "name": "Nanshi",
    "lat": 24.52246,
    "lon": 120.79154
  },
  {
    "id": "3180",
    "name": "Tongluo",
    "lat": 24.48634,
    "lon": 120.78617
  },
  {
    "id": "3190",
    "name": "Sanyi",
    "lat": 24.42066,
    "lon": 120.77393
  },
  {
    "id": "3210",
    "name": "Tai'an",
    "lat": 24.33146,
    "lon": 120.74181
  },
  {
    "id": "3220",
    "name": "Houli",
    "lat": 24.30933,
    "lon": 120.73288
  },
  {
    "id": "3230",
    "name": "Fengyuan",
    "lat": 24.25438,
    "lon": 120.72374
  },
  {
    "id": "3240",
    "name": "Lilin",
    "lat": 24.23461,
    "lon": 120.7106
  },
  {
    "id": "3250",
    "name": "Tanzi",
    "lat": 24.21214,
    "lon": 120.70564
  },
  {
    "id": "3260",
    "name": "Toujiacuo",
    "lat": 24.19572,
    "lon": 120.70398
  },
  {
    "id": "3270",
    "name": "Songzhu",
    "lat": 24.18035,
    "lon": 120.70193
  },
  {
    "id": "3280",
    "name": "Taiyuan",
    "lat": 24.16449,
    "lon": 120.69988
  },
  {
    "id": "3290",
    "name": "Jingwu",
    "lat": 24.14887,
    "lon": 120.69784
  },
  {
    "id": "3300",
    "name": "Taichung",
    "lat": 24.13728,
    "lon": 120.68691
  },
  {
    "id": "3310",
    "name": "Wuquan",
    "lat": 24.12877,
    "lon": 120.66654
  },
  {
    "id": "3320",
    "name": "Daqing",
    "lat": 24.11911,
    "lon": 120.64795
  },
  {
    "id": "3330",
    "name": "Wuri",
    "lat": 24.10867,
    "lon": 120.62244
  },
  {
    "id": "3340",
    "name": "Xinwuri",
    "lat": 24.10937,
    "lon": 120.61421
  },
  {
    "id": "3350",
    "name": "Chenggong",
    "lat": 24.11424,
    "lon": 120.59021
  },
  {
    "id": "3360",
    "name": "Changhua",
    "lat": 24.08177,
    "lon": 120.53854
  },
  {
    "id": "3370",
    "name": "Huatan",
    "lat": 24.02502,
    "lon": 120.53742
  },
  {
    "id": "3380",
    "name": "Dacun",
    "lat": 23.99002,
    "lon": 120.56062
  },
  {
    "id": "3390",
    "name": "Yuanlin",
    "lat": 23.95947,
    "lon": 120.56977
  },
  {
    "id": "3400",
    "name": "Yongjing",
    "lat": 23.92808,
    "lon": 120.57173
  },
  {
    "id": "3410",
    "name": "Shetou",
    "lat": 23.89573,
    "lon": 120.58077
  },
  {
    "id": "3420",
    "name": "Tianzhong",
    "lat": 23.85843,
    "lon": 120.59146
  },
  {
    "id": "3430",
    "name": "Ershui",
    "lat": 23.81321,
    "lon": 120.61805
  },
  {
    "id": "3431",
    "name": "Yuanquan",
    "lat": 23.79845,
    "lon": 120.64211
  },
  {
    "id": "3432",
    "name": "Zhuoshui",
    "lat": 23.83467,
    "lon": 120.70467
  },
  {
    "id": "3433",
    "name": "Longquan",
    "lat": 23.83521,
    "lon": 120.75014
  },
  {
    "id": "3434",
    "name": "Jiji",
    "lat": 23.82647,
    "lon": 120.78495
  },
  {
    "id": "3435",
    "name": "Shuili",
    "lat": 23.81845,
    "lon": 120.85332
  },
  {
    "id": "3436",
    "name": "Checheng",
    "lat": 23.83263,
    "lon": 120.86572
  },
  {
    "id": "3450",
    "name": "Linnei",
    "lat": 23.75967,
    "lon": 120.61499
  },
  {
    "id": "3460",
    "name": "Shiliu",
    "lat": 23.73167,
    "lon": 120.57998
  },
  {
    "id": "3470",
    "name": "Douliu",
    "lat": 23.71184,
    "lon": 120.54099
  },
  {
    "id": "3480",
    "name": "Dounan",
    "lat": 23.67257,
    "lon": 120.48089
  },
  {
    "id": "3490",
    "name": "Shigui",
    "lat": 23.63951,
    "lon": 120.47106
  },
  {
    "id": "4050",
    "name": "Dalin",
    "lat": 23.60089,
    "lon": 120.45597
  },
  {
    "id": "4060",
    "name": "Minxiong",
    "lat": 23.55522,
    "lon": 120.43165
  },
  {
    "id": "4070",
    "name": "Jiabei",
    "lat": 23.49981,
    "lon": 120.44851
  },
  {
    "id": "4080",
    "name": "Chiayi",
    "lat": 23.47915,
    "lon": 120.44114
  },
  {
    "id": "4090",
    "name": "Shuishang",
    "lat": 23.43398,
    "lon": 120.39971
  },
  {
    "id": "4100",
    "name": "Nanjing",
    "lat": 23.41344,
    "lon": 120.38654
  },
  {
    "id": "4110",
    "name": "Houbi",
    "lat": 23.36626,
    "lon": 120.36058
  },
  {
    "id": "4120",
    "name": "Xinying",
    "lat": 23.30673,
    "lon": 120.32307
  },
  {
    "id": "4130",
    "name": "Liuying",
    "lat": 23.27762,
    "lon": 120.32252
  },
  {
    "id": "4140",
    "name": "Linfengying",
    "lat": 23.24259,
    "lon": 120.32107
  },
  {
    "id": "4150",
    "name": "Longtian",
    "lat": 23.19271,
    "lon": 120.31917
  },
  {
    "id": "4160",
    "name": "Balin",
    "lat": 23.17284,
    "lon": 120.32125
  },
  {
    "id": "4170",
    "name": "Shanhua",
    "lat": 23.13333,
    "lon": 120.30653
  },
  {
    "id": "4180",
    "name": "Nanke",
    "lat": 23.10726,
    "lon": 120.30202
  },
  {
    "id": "4190",
    "name": "Xinshi",
    "lat": 23.06823,
    "lon": 120.29004
  },
  {
    "id": "4200",
    "name": "Yongkang",
    "lat": 23.03825,
    "lon": 120.25347
  },
  {
    "id": "4210",
    "name": "Daqiao",
    "lat": 23.01923,
    "lon": 120.22429
  },
  {
    "id": "4220",
    "name": "Tainan",
    "lat": 22.99681,
    "lon": 120.21295
  },
  {
    "id": "4250",
    "name": "Bao'an",
    "lat": 22.93296,
    "lon": 120.23158
  },
  {
    "id": "4260",
    "name": "Rende",
    "lat": 22.92354,
    "lon": 120.24054
  },
  {
    "id": "4270",
    "name": "Zhongzhou",
    "lat": 22.90446,
    "lon": 120.25284
  },
  {
    "id": "4271",
    "name": "Chang Jung Christian University",
    "lat": 22.90729,
    "lon": 120.27263
  },
  {
    "id": "4272",
    "name": "Shalun",
    "lat": 22.92407,
    "lon": 120.28622
  },
  {
    "id": "4290",
    "name": "Dahu",
    "lat": 22.87821,
    "lon": 120.25384
  },
  {
    "id": "4300",
    "name": "Luzhu",
    "lat": 22.85404,
    "lon": 120.26619
  },
  {
    "id": "4310",
    "name": "Gangshan",
    "lat": 22.79223,
    "lon": 120.30004
  },
  {
    "id": "4320",
    "name": "Qiaotou",
    "lat": 22.76098,
    "lon": 120.31011
  },
  {
    "id": "4330",
    "name": "Nanzi",
    "lat": 22.72696,
    "lon": 120.32425
  },
  {
    "id": "4340",
    "name": "Xinzuoying",
    "lat": 22.68754,
    "lon": 120.30678
  },
  {
    "id": "4350",
    "name": "Zuoying",
    "lat": 22.67445,
    "lon": 120.29401
  },
  {
    "id": "4360",
    "name": "Neiwei",
    "lat": 22.66589,
    "lon": 120.28701
  },
  {
    "id": "4370",
    "name": "Museum of Fine Arts",
    "lat": 22.65185,
    "lon": 120.28148
  },
  {
    "id": "4380",
    "name": "Gushan",
    "lat": 22.64181,
    "lon": 120.28071
  },
  {
    "id": "4390",
    "name": "Sankuaicuo",
    "lat": 22.63931,
    "lon": 120.29414
  },
  {
    "id": "4400",
    "name": "Kaohsiung",
    "lat": 22.63946,
    "lon": 120.30292
  },
  {
    "id": "4410",
    "name": "Minzu",
    "lat": 22.63879,
    "lon": 120.31494
  },
  {
    "id": "4420",
    "name": "Science And Technology Museum",
    "lat": 22.63709,
    "lon": 120.32603
  },
  {
    "id": "4430",
    "name": "Zhengyi",
    "lat": 22.63425,
    "lon": 120.34245
  },
  {
    "id": "4440",
    "name": "Fongshan",
    "lat": 22.63145,
    "lon": 120.35745
  },
  {
    "id": "4450",
    "name": "Houzhuang",
    "lat": 22.64016,
    "lon": 120.39131
  },
  {
    "id": "4460",
    "name": "Jiuqutang",
    "lat": 22.65641,
    "lon": 120.42089
  },
  {
    "id": "4470",
    "name": "Liukuaicuo",
    "lat": 22.66597,
    "lon": 120.46497
  },
  {
    "id": "5000",
    "name": "Pingtung",
    "lat": 22.66905,
    "lon": 120.48617
  },
  {
    "id": "5010",
    "name": "Guilai",
    "lat": 22.65246,
    "lon": 120.50263
  },
  {
    "id": "5020",
    "name": "Linluo",
    "lat": 22.63481,
    "lon": 120.51432
  },
  {
    "id": "5030",
    "name": "Xishi",
    "lat": 22.61637,
    "lon": 120.52649
  },
  {
    "id": "5040",
    "name": "Zhutian",
    "lat": 22.58658,
    "lon": 120.53978
  },
  {
    "id": "5050",
    "name": "Chaozhou",
    "lat": 22.55008,
    "lon": 120.53604
  },
  {
    "id": "5060",
    "name": "Kanding",
    "lat": 22.51311,
    "lon": 120.51481
  },
  {
    "id": "5070",
    "name": "Nanzhou",
    "lat": 22.49207,
    "lon": 120.51174
  },
  {
    "id": "5080",
    "name": "Zhen'an",
    "lat": 22.45794,
    "lon": 120.51129
  },
  {
    "id": "5090",
    "name": "Linbian",
    "lat": 22.43135,
    "lon": 120.51529
  },
  {
    "id": "5100",
    "name": "Jiadong",
    "lat": 22.41409,
    "lon": 120.54774
  },
  {
    "id": "5110",
    "name": "Donghai",
    "lat": 22.39897,
    "lon": 120.57236
  },
  {
    "id": "5120",
    "name": "Fangliao",
    "lat": 22.36802,
    "lon": 120.59511
  },
  {
    "id": "5130",
    "name": "Jialu",
    "lat": 22.33085,
    "lon": 120.62445
  },
  {
    "id": "5140",
    "name": "Neishi",
    "lat": 22.30617,
    "lon": 120.64331
  },
  {
    "id": "5160",
    "name": "Fangshan",
    "lat": 22.26704,
    "lon": 120.65947
  },
  {
    "id": "5170",
    "name": "Fangye",
    "lat": 22.28091,
    "lon": 120.71709
  },
  {
    "id": "5190",
    "name": "Dawu",
    "lat": 22.36526,
    "lon": 120.90094
  },
  {
    "id": "5200",
    "name": "Longxi",
    "lat": 22.46102,
    "lon": 120.94176
  },
  {
    "id": "5210",
    "name": "Jinlun",
    "lat": 22.53161,
    "lon": 120.96721
  },
  {
    "id": "5220",
    "name": "Taimali",
    "lat": 22.61883,
    "lon": 121.00492
  },
  {
    "id": "5230",
    "name": "Zhiben",
    "lat": 22.71022,
    "lon": 121.06068
  },
  {
    "id": "5240",
    "name": "Kangle",
    "lat": 22.76426,
    "lon": 121.09356
  },
  {
    "id": "5998",
    "name": "South",
    "lat": 22.52755,
    "lon": 120.53658
  },
  {
    "id": "5999",
    "name": "Chaozhou Railway Workshop",
    "lat": 22.52231,
    "lon": 120.52642
  },
  {
    "id": "6000",
    "name": "Taitung",
    "lat": 22.79372,
    "lon": 121.1231
  },
  {
    "id": "6010",
    "name": "Shanli",
    "lat": 22.86194,
    "lon": 121.13778
  },
  {
    "id": "6020",
    "name": "Luye",
    "lat": 22.91249,
    "lon": 121.13701
  },
  {
    "id": "6030",
    "name": "Ruiyuan",
    "lat": 22.95604,
    "lon": 121.15901
  },
  {
    "id": "6040",
    "name": "Ruihe",
    "lat": 22.97997,
    "lon": 121.15595
  },
  {
    "id": "6050",
    "name": "Guanshan",
    "lat": 23.04566,
    "lon": 121.1643
  },
  {
    "id": "6060",
    "name": "Haiduan",
    "lat": 23.10292,
    "lon": 121.17676
  },
  {
    "id": "6070",
    "name": "Chishang",
    "lat": 23.12613,
    "lon": 121.21949
  },
  {
    "id": "6080",
    "name": "Fuli",
    "lat": 23.17924,
    "lon": 121.24864
  },
  {
    "id": "6090",
    "name": "Dongzhu",
    "lat": 23.22605,
    "lon": 121.27842
  },
  {
    "id": "6100",
    "name": "Dongli",
    "lat": 23.27234,
    "lon": 121.30418
  },
  {
    "id": "6110",
    "name": "Yuli",
    "lat": 23.33155,
    "lon": 121.31172
  },
  {
    "id": "6120",
    "name": "Sanmin",
    "lat": 23.42458,
    "lon": 121.34539
  },
  {
    "id": "6130",
    "name": "Ruisui",
    "lat": 23.49738,
    "lon": 121.37684
  },
  {
    "id": "6140",
    "name": "Fuyuan",
    "lat": 23.58031,
    "lon": 121.38008
  },
  {
    "id": "6150",
    "name": "Dafu",
    "lat": 23.60571,
    "lon": 121.38963
  },
  {
    "id": "6160",
    "name": "Guangfu",
    "lat": 23.66631,
    "lon": 121.42117
  },
  {
    "id": "6170",
    "name": "Wanrong",
    "lat": 23.71199,
    "lon": 121.41907
  },
  {
    "id": "6180",
    "name": "Fenglin",
    "lat": 23.74634,
    "lon": 121.44701
  },
  {
    "id": "6190",
    "name": "Nanping",
    "lat": 23.78231,
    "lon": 121.45824
  },
  {
    "id": "6200",
    "name": "Linrong Shin Kong",
    "lat": 23.80176,
    "lon": 121.46169
  },
  {
    "id": "6210",
    "name": "Fengtian",
    "lat": 23.84842,
    "lon": 121.49618
  },
  {
    "id": "6220",
    "name": "Shoufeng",
    "lat": 23.86901,
    "lon": 121.51064
  },
  {
    "id": "6230",
    "name": "Pinghe",
    "lat": 23.88279,
    "lon": 121.52045
  },
  {
    "id": "6240",
    "name": "Zhixue",
    "lat": 23.90769,
    "lon": 121.5295
  },
  {
    "id": "6250",
    "name": "Ji'an",
    "lat": 23.96823,
    "lon": 121.58266
  },
  {
    "id": "7000",
    "name": "Hualien",
    "lat": 23.99265,
    "lon": 121.60131
  },
  {
    "id": "7010",
    "name": "Beipu",
    "lat": 24.03253,
    "lon": 121.60166
  },
  {
    "id": "7020",
    "name": "Jingmei",
    "lat": 24.09041,
    "lon": 121.61095
  },
  {
    "id": "7030",
    "name": "Xincheng",
    "lat": 24.12756,
    "lon": 121.64086
  },
  {
    "id": "7040",
    "name": "Chongde",
    "lat": 24.17199,
    "lon": 121.65536
  },
  {
    "id": "7050",
    "name": "Heren",
    "lat": 24.24225,
    "lon": 121.71182
  },
  {
    "id": "7060",
    "name": "Heping",
    "lat": 24.29839,
    "lon": 121.75344
  },
  {
    "id": "7070",
    "name": "Hanben",
    "lat": 24.33543,
    "lon": 121.76838
  },
  {
    "id": "7080",
    "name": "Wuta",
    "lat": 24.44879,
    "lon": 121.77601
  },
  {
    "id": "7090",
    "name": "Nan'ao",
    "lat": 24.46342,
    "lon": 121.80103
  },
  {
    "id": "7100",
    "name": "Dong'ao",
    "lat": 24.51827,
    "lon": 121.83072
  },
  {
    "id": "7110",
    "name": "Yongle",
    "lat": 24.56843,
    "lon": 121.84458
  },
  {
    "id": "7120",
    "name": "Su'ao",
    "lat": 24.59516,
    "lon": 121.85143
  },
  {
    "id": "7130",
    "name": "Su'aoxin",
    "lat": 24.60852,
    "lon": 121.82735
  },
  {
    "id": "7140",
    "name": "Xinma",
    "lat": 24.61541,
    "lon": 121.82291
  },
  {
    "id": "7150",
    "name": "Dongshan",
    "lat": 24.63633,
    "lon": 121.79211
  },
  {
    "id": "7160",
    "name": "Luodong",
    "lat": 24.67791,
    "lon": 121.77464
  },
  {
    "id": "7170",
    "name": "Zhongli_Yilan",
    "lat": 24.69415,
    "lon": 121.77526
  },
  {
    "id": "7180",
    "name": "Erjie",
    "lat": 24.70528,
    "lon": 121.77409
  },
  {
    "id": "7190",
    "name": "Yilan",
    "lat": 24.75457,
    "lon": 121.75803
  },
  {
    "id": "7200",
    "name": "Sicheng",
    "lat": 24.78681,
    "lon": 121.76271
  },
  {
    "id": "7210",
    "name": "Jiaoxi",
    "lat": 24.82703,
    "lon": 121.77535
  },
  {
    "id": "7220",
    "name": "Dingpu",
    "lat": 24.84391,
    "lon": 121.80913
  },
  {
    "id": "7230",
    "name": "Toucheng",
    "lat": 24.85898,
    "lon": 121.82258
  },
  {
    "id": "7240",
    "name": "Wai'ao",
    "lat": 24.88375,
    "lon": 121.84572
  },
  {
    "id": "7250",
    "name": "Guishan",
    "lat": 24.90484,
    "lon": 121.8689
  },
  {
    "id": "7260",
    "name": "Daxi",
    "lat": 24.93836,
    "lon": 121.88983
  },
  {
    "id": "7270",
    "name": "Dali",
    "lat": 24.96677,
    "lon": 121.92253
  },
  {
    "id": "7280",
    "name": "Shicheng",
    "lat": 24.97832,
    "lon": 121.94507
  },
  {
    "id": "7290",
    "name": "Fulong",
    "lat": 25.01595,
    "lon": 121.94471
  },
  {
    "id": "7300",
    "name": "Gongliao",
    "lat": 25.02197,
    "lon": 121.90879
  },
  {
    "id": "7310",
    "name": "Shuangxi",
    "lat": 25.03851,
    "lon": 121.86654
  },
  {
    "id": "7320",
    "name": "Mudan",
    "lat": 25.05871,
    "lon": 121.85197
  },
  {
    "id": "7330",
    "name": "Sandiaoling",
    "lat": 25.06555,
    "lon": 121.82257
  },
  {
    "id": "7331",
    "name": "Dahua",
    "lat": 25.04998,
    "lon": 121.79732
  },
  {
    "id": "7332",
    "name": "Shifen",
    "lat": 25.04111,
    "lon": 121.77514
  },
  {
    "id": "7333",
    "name": "Wanggu",
    "lat": 25.03445,
    "lon": 121.76349
  },
  {
    "id": "7334",
    "name": "Lingjiao",
    "lat": 25.03016,
    "lon": 121.74795
  },
  {
    "id": "7335",
    "name": "Pingxi",
    "lat": 25.02571,
    "lon": 121.74019
  },
  {
    "id": "7336",
    "name": "Jingtong",
    "lat": 25.02391,
    "lon": 121.72391
  },
  {
    "id": "7350",
    "name": "Houtong",
    "lat": 25.08702,
    "lon": 121.82743
  },
  {
    "id": "7360",
    "name": "Ruifang",
    "lat": 25.10872,
    "lon": 121.80599
  },
  {
    "id": "7361",
    "name": "Haikeguan",
    "lat": 25.13754,
    "lon": 121.79997
  },
  {
    "id": "7362",
    "name": "Badouzi",
    "lat": 25.13528,
    "lon": 121.80286
  },
  {
    "id": "7380",
    "name": "Sijiaoting",
    "lat": 25.10281,
    "lon": 121.76195
  },
  {
    "id": "7390",
    "name": "Nuannuan",
    "lat": 25.10231,
    "lon": 121.74031
  }
]